[
  {
    "lat": 43.648833,
    "lng": 43.648833,
    "name": "NICE"
  },
  {
    "lat": 43.621,
    "lng": 43.621,
    "name": "TOULOUSE-BLAGNAC"
  },
  {
    "lat": -22.344167,
    "lng": -22.344167,
    "name": "EUROPA"
  },
  {
    "lat": 44.745,
    "lng": 44.745,
    "name": "GOURDON"
  },
  {
    "lat": 43.437667,
    "lng": 43.437667,
    "name": "MARIGNANE"
  },
  {
    "lat": 4.822333,
    "lng": 4.822333,
    "name": "CAYENNE-MATOURY"
  },
  {
    "lat": 42.540667,
    "lng": 42.540667,
    "name": "BASTIA"
  },
  {
    "lat": 46.046833,
    "lng": 46.046833,
    "name": "PTE DE CHASSIRON"
  },
  {
    "lat": 44.565667,
    "lng": 44.565667,
    "name": "EMBRUN"
  },
  {
    "lat": 49.725167,
    "lng": 49.725167,
    "name": "PTE DE LA HAGUE"
  },
  {
    "lat": 44.830667,
    "lng": 44.830667,
    "name": "BORDEAUX-MERIGNAC"
  },
  {
    "lat": 17.9015,
    "lng": 17.9015,
    "name": "ST-BARTHELEMY METEO"
  },
  {
    "lat": 47.614333,
    "lng": 47.614333,
    "name": "BALE-MULHOUSE"
  },
  {
    "lat": -12.8055,
    "lng": -12.8055,
    "name": "PAMANDZI"
  },
  {
    "lat": 43.909833,
    "lng": 43.909833,
    "name": "MONT-DE-MARSAN"
  },
  {
    "lat": 41.918,
    "lng": 41.918,
    "name": "AJACCIO"
  },
  {
    "lat": 46.593833,
    "lng": 46.593833,
    "name": "POITIERS-BIARD"
  },
  {
    "lat": 47.059167,
    "lng": 47.059167,
    "name": "BOURGES"
  },
  {
    "lat": 47.4445,
    "lng": 47.4445,
    "name": "TOURS"
  },
  {
    "lat": 47.267833,
    "lng": 47.267833,
    "name": "DIJON-LONGVIC"
  },
  {
    "lat": 48.324667,
    "lng": 48.324667,
    "name": "TROYES-BARBEREY"
  },
  {
    "lat": 44.581167,
    "lng": 44.581167,
    "name": "MONTELIMAR"
  },
  {
    "lat": 5.4855,
    "lng": 5.4855,
    "name": "SAINT LAURENT"
  },
  {
    "lat": -37.795167,
    "lng": -37.795167,
    "name": "NOUVELLE AMSTERDAM"
  },
  {
    "lat": -17.054667,
    "lng": -17.054667,
    "name": "JUAN DE NOVA"
  },
  {
    "lat": -15.887667,
    "lng": -15.887667,
    "name": "TROMELIN"
  },
  {
    "lat": 48.444167,
    "lng": 48.444167,
    "name": "BREST-GUIPAVAS"
  },
  {
    "lat": 49.18,
    "lng": 49.18,
    "name": "CAEN-CARPIQUET"
  },
  {
    "lat": 50.136,
    "lng": 50.136,
    "name": "ABBEVILLE"
  },
  {
    "lat": 43.188,
    "lng": 43.188,
    "name": "TARBES-OSSUN"
  },
  {
    "lat": 45.0745,
    "lng": 45.0745,
    "name": "LE PUY-LOUDES"
  },
  {
    "lat": 42.737167,
    "lng": 42.737167,
    "name": "PERPIGNAN"
  },
  {
    "lat": 47.294333,
    "lng": 47.294333,
    "name": "BELLE ILE-LE TALUT"
  },
  {
    "lat": -49.352333,
    "lng": -49.352333,
    "name": "KERGUELEN"
  },
  {
    "lat": 48.5495,
    "lng": 48.5495,
    "name": "STRASBOURG-ENTZHEIM"
  },
  {
    "lat": 43.577,
    "lng": 43.577,
    "name": "MONTPELLIER"
  },
  {
    "lat": 47.15,
    "lng": 47.15,
    "name": "NANTES-BOUGUENAIS"
  },
  {
    "lat": 48.068833,
    "lng": 48.068833,
    "name": "RENNES-ST JACQUES"
  },
  {
    "lat": 43.005333,
    "lng": 43.005333,
    "name": "ST GIRONS"
  },
  {
    "lat": 48.581,
    "lng": 48.581,
    "name": "NANCY-OCHEY"
  },
  {
    "lat": -20.8925,
    "lng": -20.8925,
    "name": "GILLOT-AEROPORT"
  },
  {
    "lat": 49.383,
    "lng": 49.383,
    "name": "ROUEN-BOOS"
  },
  {
    "lat": 43.079333,
    "lng": 43.079333,
    "name": "CAP CEPET"
  },
  {
    "lat": 48.825833,
    "lng": 48.825833,
    "name": "PLOUMANAC'H"
  },
  {
    "lat": 50.57,
    "lng": 50.57,
    "name": "LILLE-LESQUIN"
  },
  {
    "lat": 44.1185,
    "lng": 44.1185,
    "name": "MILLAU"
  },
  {
    "lat": 45.786833,
    "lng": 45.786833,
    "name": "CLERMONT-FD"
  },
  {
    "lat": 48.716833,
    "lng": 48.716833,
    "name": "ORLY"
  },
  {
    "lat": 3.640167,
    "lng": 3.640167,
    "name": "MARIPASOULA"
  },
  {
    "lat": 45.7265,
    "lng": 45.7265,
    "name": "LYON-ST EXUPERY"
  },
  {
    "lat": 48.4455,
    "lng": 48.4455,
    "name": "ALENCON"
  },
  {
    "lat": 45.861167,
    "lng": 45.861167,
    "name": "LIMOGES-BELLEGARDE"
  },
  {
    "lat": -11.582667,
    "lng": -11.582667,
    "name": "GLORIEUSES"
  }
]